[
    {
        "name":"Catholic Cathedral of Our Lady of Perpetual Help",
        "address":"34, Catholic Cathedral Rd, Makurdi",
        "latitude":"7.733333",
        "longitude":"8.533333"
    },
    {
        "name":"St. Francis Catholic Church",
        "address":"High Level, Makurdi",
        "latitude":"7.726389",
        "longitude":"8.522778"
    },
    {
        "name":"St. Joseph's Catholic Church",
        "address":"Wadata, Makurdi",
        "latitude":"7.743056",
        "longitude":"8.539722"
    },
    {
        "name":"St. Mark's Anglican Cathedral",
        "address":"1, Cathedral Rd, Makurdi",
        "latitude":"7.729722",
        "longitude":"8.526389"
    },
    {
        "name":"All Saints' Anglican Church",
        "address":"High Level, Makurdi",
        "latitude":"7.723611",
        "longitude":"8.515556"
    },
    {
        "name":"St. Peter's Anglican Church",
        "address":"Wadata, Makurdi",
        "latitude":"7.748333",
        "longitude":"8.548611"
    },
    {
        "name":"Living Faith Church (Winners Chapel)",
        "address":"Km 1, Makurdi-Gboko Rd, Makurdi",
        "latitude":"7.755556",
        "longitude":"8.562778"
    },
    {
        "name":"Deeper Life Bible Church",
        "address":"High Level, Makurdi",
        "latitude":"7.722222",
        "longitude":"8.511389"
    },
    {
        "name":"Deeper Life Bible Church",
        "address":"High Level, Makurdi",
        "latitude":"7.722222",
        "longitude":"8.511389"
    },
    {
        "name":"Redeemed Christian Church of God (RCCG)",
        "address":"Km 2, Makurdi-Gboko Rd, Makurdi",
        "latitude":"7.762500",
        "longitude":"8.571389"
    },
    {
        "name":"ECWA Church",
        "address":"High Level, Makurdi",
        "latitude":"7.725000",
        "longitude":"8.518611"
    },
    {
        "name":"Methodist Church",
        "address":"Wadata, Makurdi",
        "latitude":"7.746389",
        "longitude":"8.552778"
    },
    {
        "name":"Methodist Church",
        "address":"Wadata, Makurdi",
        "latitude":"7.746389",
        "longitude":"8.552778"
    },
    {
        "name":"Presbyterian Church",
        "address":"High Level, Makurdi",
        "latitude":"7.721389",
        "longitude":"8.509722"
    }
]
 